,name,description,lat,lng,hostname,metrics,launch_year,country,continent,harvesting_sets,gdcc_member,doi_authority,contact_email,dv_hub_id,about_url,core_trust_seals,board,url
0,Abacus,Open for researchers associated with British Columbia universities to deposit data.,49.259982,-123.250212,abacus.library.ubc.ca,True,2014,Canada,North America,['abacus_open'],0.0,␕,abacus.support@ubc.ca,01893C8A-2503-4E23-A873-59CE9C40D568,,,,https://abacus.library.ubc.ca
1,ACSS Dataverse,"The ACSS Dataverse is an initiative of the Arab Council for the Social Sciences, in collaboration with the Odum Institute for Research in Social Science at the University of North Carolina at Chapel Hill. The ACSS Dataverse contains social science datasets produced in Arab countries, with the goal of making data available for research in the region and preserving data for future generations of researchers. There is no charge for access to datasets in the ACSS Dataverse, although users are requested to register in order to download data. The ACSS Dataverse encourages social scientists who study the Arab region to participate in this initiative by depositing data.",33.899798,35.485184,dataverse.theacss.org,True,2019,Lebanon,Asia,,0.0,10.25825,dataverse@theacss.org,0365C02D-D6BB-4B64-9ED4-7D32F4CDC047,,,,https://dataverse.theacss.org
2,ADA Dataverse,"The Australian Data Archive provides a national service for collecting, preserving, publishing and accessing digital research data.",-35.343784,149.082977,dataverse.ada.edu.au,True,2017,Australia,Australia,,1.0,10.26193,ada@anu.edu.au,04A71002-4002-46E8-8BF6-6D5ABF260D81,https://ada.edu.au,['https://www.coretrustseal.org/wp-content/uploads/2018/02/Australian-Data-Archive.pdf'],https://github.com/orgs/IQSS/projects/17,https://dataverse.ada.edu.au
3,ADP - Slovenian Social Science Data Archives,"Slovenian Social Science Data Archives (ADP) was established in 1997 as an organizational unit of the Social Sciences Research Institute at the Faculty of Social Sciences, University of Ljubljana. It is a national research infrastructure for social sciences, whose main mission is to manage data and data services in order to support research, education, and general well-being.",46.056946,14.505751,dataverse.adp.fdv.uni-lj.si,,2020,Slovenia,Europe,,0.0,10.17898,gregor.zibert@fdv.uni-lj.si,0532DC5E-4A95-4F39-8FA1-879CFF4BF702,,,,https://dataverse.adp.fdv.uni-lj.si
4,Arca Dados,"Arca Dados is Fiocruz's official repository to archive, publish, disseminate, preserve and share digital research data produced by the Fiocruz community or in partnership with other research institutes or bodies, with the objective of promoting new research, ensuring the reproducibility or replicability of existing research, and promoting Open and Citizen Science. Its objective is to stimulate the wide circulation of scientific knowledge, strengthening the institutional commitment to Open Science and the free access of information in health, in addition to providing transparency and fostering collaboration between researchers, educators, academics, managers, graduate students, for the advancement of knowledge and the creation of solutions that meet society's demands. For more information, email dataabertos@fiocruz.br",-22.874936,-43.245379,dadosdepesquisa.fiocruz.br,True,2020,Brazil,South America,,0.0,10.35078,dadosabertos@fiocruz.br,099DB632-D3D8-4AFA-9DC1-17BBEA2FEC23,,,,https://dadosdepesquisa.fiocruz.br
5,ARP,"The repository was originally created as Concorda, an ad-hoc initiative for data exchange during the Covid-19 pandemic by HUN-REN Institute for Computer Science and Control (SZTAKI) and HUN-REN Wigner Research Centre for Physics (WIGNER). Since then, the repository was significantly expanded with additional disk space and other resources donated by SZTAKI and WIGNER institutes, and accepts data from all Hungarian researchers (with some storage constraints). In 2021, the ARP project started to build research data infrastructure for the Hungarian Research Network, and chose it as the main repository component to be integrated, while also significantly expanding its storage capacity. See also: https://researchdata.hu/ https://fairsharing.org/4585 https://www.re3data.org/repository/r3d100014109 https://v2.sherpa.ac.uk/id/repository/10638 https://wigner.hu/ https://sztaki.hu/",47.47834443,19.05210423,repo.researchdata.hu,True,2020,Hungary,Europe,,0.0,,support@researchdata.hu,0C135F45-4761-4DA4-8A82-6DFA123516B2,,,,https://repo.researchdata.hu
6,ASU Library Research Data Repository,"ASU Library's research data repository (powered by Harvard’s Dataverse software) helps ASU affiliated researchers share, store, preserve, cite, explore, and make research data accessible and discoverable. Dataverse is a dedicated research data management service platform that serves in the publication and reuse phase of the research data lifecycle and works in concert with the ASU Digital Repository ecosystem to present a more complete picture of ASU’s scholarly activities.",33.425437,-111.928163,dataverse.asu.edu,True,2020,USA,North America,,1.0,10.48349,dataverse@asu.edu,0C38969F-3860-4C47-AADE-5F5BD5783AFC,,,https://github.com/orgs/IQSS/projects/30,https://dataverse.asu.edu
7,AUSSDA Dataverse,"AUSSDA - The Austrian Social Science Data Archive makes social science data accessible, creating opportunities for research and data reuse, benefitting science and society. AUSSDA serves as the Austrian representative in the Consortium of European Social Science Data Archives (CESSDA ERIC).",48.210033,16.363449,data.aussda.at,True,2017,Austria,Europe,['all_published'],0.0,10.11587,info@aussda.at,0C6FE28C-C948-4E28-B8A6-6C5F44E91F75,http://aussda.at,['https://www.coretrustseal.org/wp-content/uploads/2020/07/AUSSDA-The-Austrian-Social-Science-Data-Archive.pdf'],,https://data.aussda.at
8,awf.rodbuk.pl,,50.07272998,20.00123847,akf.rodbuk.pl,True,2023,Poland,Europe,,0.0,,,0F1E7DA7-DF2B-45A8-8612-CEBE2E145439,,,,https://akf.rodbuk.pl
9,BioData.pt Data Management Portal (DMPortal),"DMPortal is offered by BioData.pt, the Portuguese biological data infrastructure and national node of ELIXIR. The portal aims to support the national life sciences research community by enabling FAIR research practices. DMPortal is open to all life sciences fields, but has traditionally been more focused in supporting research in COVID-19, human health, and plant sciences.",38.736667,-9.138889,dmportal.biodata.pt,True,2020,Portugal,Europe,,0.0,10.34636,,10A83043-FD21-4159-AD0B-CF8A708BFF83,,,,https://dmportal.biodata.pt
10,bonndata,"bonndata is a state-of-the-art, cross-disciplinary research data repository designed for scientists at the University of Bonn. The repository is an integral part of the University of Bonn's research infrastructure and it is maintained by the Research Data Service Center, which offers a range of services to help researchers manage their data throughout the research lifecycle.",50.72894416,7.088606727,bonndata.uni-bonn.de,True,2023,Germany,Europe,,0.0,,szerr@uni-bonn.de,12036F68-18DB-4E2D-8B78-4A0DC196F39C,,,,https://bonndata.uni-bonn.de
11,Borealis,Open for researchers and organizations associated with subscribing Canadian universities to deposit data.,43.6532,-79.3832,borealisdata.ca,True,2012,Canada,North America,['sp_dataverse'],1.0,10.5683,dataverse@scholarsportal.info,162792C0-6C7B-415A-B70C-B0A02773DF20,https://borealisdata.ca/about/,['https://doi.org/10.34894/PUHYXX'],https://github.com/orgs/IQSS/projects/8,https://borealisdata.ca
12,Botswana Harvard Data,"The Botswana Harvard AIDS Institute Partneship is a world-renowned educational institution of excellence in research and education pertinent to HIV/AIDS and other emerging public health challenges. Established in 1996, the Botswana Harvard AIDS Institute Partnership (BHP) is a collaborative research and training initiative between Botswana’s Ministry of Health and Wellness and the Harvard T.H. Chan School of Public Health AIDS Initiative. The BHP Dataverse is a data repository for all the research done at BHP. Raw data, anonymised data and final analysis data for every research. This repository will achieve and also easy data sharing within the organisation and outside.",-24.653257,25.906792,dataverse.bhp.org.bw,True,2019,Botswana,Africa,,0.0,∅,,1709ECC8-0AB5-4831-BF75-FC600EBF492D,,,,https://dataverse.bhp.org.bw
13,BRIN Dataverse,"The Repositori Ilmiah Nasional (RIN) is a means to share, preserve, cite, explore, and analyze research data. RIN increases data availability and allows others to reproduce research more easily. Researchers, data authors, publishers, data distributors, and affiliate institutions all receive academic credit and web visibility. Researchers, agencies, and funders have full control over research data.",-6.228771,106.818082,data.brin.go.id,True,2018,Indonesia,Asia,,0.0,,rin@brin.go.id,180DF962-02CC-4B79-85EB-888BEE8F4A63,,,,https://data.brin.go.id
14,BSC Dataverse,"The BSC Dataverse is the institutional research data and metadata repository of the Barcelona Supercomputing Center - Centro Nacional de Supercomputación (BSC-CNS). It seeks to enable the storage, sharing, and search of research data coming from the BSC researchers, collaborators, and affiliated projects.",41.3901012,2.114820641,dataverse.bsc.es,,2025,Spain,Europe,,0.0,,datamanagement@bsc.es,D16109AC-CC5A-4040-B18C-D815FD5D67B8,,,,https://dataverse.bsc.es
15,Centro Brasileiro de Pesquisas Físicas - CBPF,Brazilian Center for Research in Physics,-22.954204,-43.1734987,dataverse.cbpf.br,True,2021,Brazil,South America,,0.0,10.8037,lab3i@cbpf.br,1BCBABA5-9525-41C8-B97E-93F3DD64BC1F,,,,https://dataverse.cbpf.br
16,CESA | Repositorio de datos académicos,"Discover the data on entrepreneurship projects, innovation plans, digital transformation proposals, consumers, and financial markets. Also, explore research on business, management, and entrepreneurship research development at our Business school.",4.621920153,-74.06522592,opendata.cesa.edu.co,True,2023,Colombia,South America,,0.0,10.5713,biblioteca@cesa.edu.co,1D7C0988-23AF-4601-8BF0-CB756CEC2E21,,,,https://opendata.cesa.edu.co
17,CIDACS,Fiocruz-BA data repository publishes epidemiological data and research from all over Brazil,-12.922964,-38.387918,dataverse.cidacs.org,True,2020,Brazil,South America,,0.0,,curadoriadata@gmail.com,2244D814-5DA6-4B3F-9C03-6518187928BA,,,,https://dataverse.cidacs.org
18,CIFOR,Center for International Forestry Research (CIFOR) Dataverse,-6.594293,106.806,data.cifor.org,True,2015,Indonesia,Asia,['cifor_general'],0.0,10.17528,cifor-rdm-support@cgiar.org,22E84818-90ED-4663-B002-6EDAF27F71CE,,,,https://data.cifor.org
19,CIMMYT Research Data,"Free, open access repository of research data and software produced and developed by CIMMYT scientists.",19.531535,-98.846064,data.cimmyt.org,True,2016,Mexico,North America,"['cimmytdatadvn', 'cimmytswdvn', 'iwypdvn']",0.0,␕,J.HERRERA@cgiar.org,232FF393-29CB-4CB6-B2F8-344206F4EA15,,,,https://data.cimmyt.org
20,CIRAD Dataverse,"Organisme français de recherche agronomique et de coopération internationale pour le développement durable des régions tropicales et méditerranéennes, les activités du CIRAD relèvent des sciences du vivant, des sciences sociales et des sciences de l’ingénieur appliquées à l’agriculture, à l’alimentFrench agricultural research and international cooperation organization working for the sustainable development of tropical and Mediterranean regions, CIRAD's activities concern the life sciences, social sciences and engineering sciences, applied to agriculture, the environment and territorial management.",43.650089,3.869122,dataverse.cirad.fr,True,2018,France,Europe,,0.0,10.18167,dataverse@cirad.fr,24E58B30-4AB4-48DD-A860-FF92AAF4CC94,,,https://github.com/orgs/IQSS/projects/29,https://dataverse.cirad.fr
21,CORA. Research Data Repository (RDR),"CORA. Research Data Repository (RDR) is a federated and multidisciplinary data repository that allows Catalan universities, CERCA research centers and other entities that carry out research to publish research datasets in FAIR mode and following the EOSC guidelines. The objectives of the RDR are to increase the efficiency and transparency of research through the rapid dissemination of datasets and to facilitate their reuse.",41.38745982,2.112077304,dataverse.csuc.cat,True,2021,Spain,Europe,,1.0,10.3481,rdr-contacte@csuc.cat,26523886-D0AB-4B0A-977B-1425FCC7E8DF,https://dataverse.csuc.cat/about.xhtml,,,https://dataverse.csuc.cat
22,CoronaWhy Dataverse,"Research data repository of the CoronaWhy, globally distributed, volunteer-powered research organisation, trying to assist the medical community’s ability to answer key questions related to COVID-19 and Monkeypox.",52.0705,4.3007,datasets.coronawhy.org,,2020,Netherlands,Europe,,0.0,,team@coronawhy.org,276F55BD-C3F4-4985-8B80-50B368200292,,,,https://datasets.coronawhy.org
23,CROSSDA,The Croatian Social Science Data Archive (CROSSDA) is a national infrastructure public service whose role is to ensure the long-term preservation and dissemination of social science research data.,45.79641,15.97162,data.crossda.hr,True,2020,Croatia,Europe,,0.0,10.23669,mglavica@ffzg.hr,2AADDB90-FD26-4C8B-A799-B647A95BB527,https://www.crossda.hr/,,,https://data.crossda.hr
24,CUHK Research Data Repository,The CUHK Research Data Repository serves as an institutional research data repository for The Chinese University of Hong Kong (CUHK). It facilitates CUHK researchers to deposit their research data and for the worldwide to explore the research data outputs at CUHK.,22.41984318,114.2067606,researchdata.cuhk.edu.hk,True,2021,Hong Kong,Asia,,0.0,10.48668,data@cuhk.edu.hk,2B2A340B-CE4A-4B14-8E99-3CB7867D3E70,,,,https://researchdata.cuhk.edu.hk
25,DADOS IPB,"The data repository of the Instituto Politécnico de Bragança aims to store, preserve, share and manage research data generated by the academic community.",41.79757745,-6.767712402,dados.ipb.pt,True,2022,Portugal,Europe,,0.0,,dados@ipb.pt,2C53FDB4-303D-4F7A-B236-247D92E69B6F,,,,https://dados.ipb.pt
26,Dane Badawcze UW,"Dane Badawcze UW - University of Warsaw Research Data Repository allows free and long-term archiving and open sharing of research data from all scientific disciplines, including data produced as part of research conducted at the University of Warsaw or in collaboration with the university.",52.19247091,21.02191503,danebadawcze.uw.edu.pl,,2023,Poland,Europe,,0.0,10.58132,danebadawczeuw@icm.edu.pl,2D4CEFE4-9179-4349-920C-04D6F97C316A,,,,https://danebadawcze.uw.edu.pl
27,DANS Data Station Archaeology,"DANS has launched the Data Station Archeology for the Dutch archaeological research community interested in storing, finding, sharing and publishing their data online. iggest advantages: the large amount of easily searchable data, support for all Creative Commons licenses, the possibility of version control, working with living data and sharing with others.",52.0705,4.3007,archaeology.datastations.nl,True,2022,Netherlands,Europe,,0.0,,info@dataverse.nl,2E499092-F6A2-4C5F-8F28-6ECCC9CCCD37,,,,https://archaeology.datastations.nl
28,DANS Data Station Life Sciences,"Domain-specific data repository for the Life Sciences, covering all disciplines from the health, medical as well as the green life sciences. This repository primarily serves research communities in The Netherlands, but is open to international researchers and projects that carry a connection to The Netherlands or Dutch research institutes and programmes.",52.08083,4.345672,lifesciences.datastations.nl,True,2023,Netherlands,Europe,,0.0,10.17026,info@dans.knaw.nl,305298B4-F80D-4417-BDDF-2B5E1840B60E,,,,https://lifesciences.datastations.nl
29,DANS Data Station Physical and Technical Sciences,"Domain-specific data repository for research data from the Physical and Technical sciences. This repository focuses on the Dutch research community, offering repository services to organisations and individuals that have no (direct) acces to an institutional repository, or have a preference for the multi-disciplinary data services provided by DANS.",52.0705,4.3007,phys-techsciences.datastations.nl,True,2023,Netherlands,Europe,,0.0,10.17026, info@dans.knaw.nl,3077971C-1522-4D7C-AF5C-DD1120EA2E24,,,,https://phys-techsciences.datastations.nl
30,DANS Data Station Social Sciences and Humanities,The Data Station Social Sciences and Humanities is a service of DANS. It allows you to deposit and search for data within the social sciences and humanities.,52.0705,4.3007,ssh.datastations.nl,True,2023,Netherlands,Europe,,0.0,10.17026,info@dans.knaw.nl,309FE101-B4BD-4814-A7D1-92A5DF83FAEA,,,,https://ssh.datastations.nl
31,dare,/dare/ (short for data repository) is the central institutional repository for research data at the Carl von Ossietzky University of Oldenburg. It serves as a platform for research data generated at the University or created in its context. All users affiliated with the University are welcome to upload their research data here.,53.1468491,8.183134727,dare.uol.de,True,2022,Germany,Europe,,0.0,10.57782,fdm-support@uol.de,341CC470-986F-422A-A3AF-647D6ECE18D4,,,,https://dare.uol.de
32,Dartmouth Dataverse,,43.704448,-72.288715,dataverse.dartmouth.edu,True,2020,USA,North America,,0.0,,,34E23D94-1B94-4C6D-ACD0-BDA11DF38772,,,,https://dataverse.dartmouth.edu
33,DaRUS,"DaRUS, the data repository of the University of Stuttgart, offers a secure location for research data and codes of members or partners of the University of Stuttgart. DaRUS is used not only for publishing finished data, but also for managing and exchanging data at all stages of the lifecycle.",48.781647,9.172552,darus.uni-stuttgart.de,True,2019,Germany,Europe,,1.0,10.18419,fokus@izus.uni-stuttgart.de,35AE7E88-7108-485B-8541-2135D22E499D,https://www.izus.uni-stuttgart.de/en/fokus/darus/,,,https://darus.uni-stuttgart.de
34,Data Suds,"Hosted by IRD, a french public research institution, who defends an original model of equitable scientific partnership with the countries of the South and an interdisciplinary and citizen science, committed to the achievement of the Sustainable Development Goals.",43.309873,5.368818,dataverse.ird.fr,True,2019,France,Europe,,0.0,10.23708,data@ird.fr,35EE8D5A-742D-4E8C-8475-61ED17CAD563,https://data.ird.fr,,https://github.com/orgs/IQSS/projects/20,https://dataverse.ird.fr
35,data.sciencespo,Open for researchers and organizations associated with French universities to deposit data. Hosted by the Center for Socio-Political Data (Sciences Po and CNRS).,48.854027,2.328351,data.sciencespo.fr,True,2016,France,Europe,,0.0,10.2141,data@sciencespo.fr,36A4243C-C8B5-42BD-8F8E-AABB875FFFCF,,,https://github.com/orgs/IQSS/projects/12,https://data.sciencespo.fr
36,dataportal.ing.pan.pl,"IGS PAS Data Portal is an open data repository of Institute of Geological Sciences Polish Academy of Sciences. This portal is used to collect and share data, taking into account access to the data from external repositories. IGS PAS data are open and provided for free use for non-commercial purposes under applicable laws on data sharing public and publicly funded. In the case of using data by external entities, the data source must be cited following the guidelines (information on how to cite data is included in the Cite Dataset field).",52.22835613,20.99329514,dataportal.ing.pan.pl,True,2024,Poland,Europe,,0.0,10.60871,,3957580D-632B-4A20-84FE-7BBEA379AD2D,,,,https://dataportal.ing.pan.pl
37,DataRepositoriUM,"Institutional Data Repository of the University of Minho. Share, publish and manage research data from UMinho research units.",41.561246,-8.39628,datarepositorium.sdum.uminho.pt,,2019,Portugal,Europe,,1.0,10.34622,datarepositorium@usdb.uminho.pt,3A00D0AB-4A8E-4006-98CA-175C40DC096B,https://datarepositorium.uminho.pt/,,,https://datarepositorium.sdum.uminho.pt
38,DataSpace@HKUST,,22.336281,114.266721,dataspace.ust.hk,,2016,Hong Kong,Asia,,0.0,10.14711,,3C69DB8E-9BC8-4645-A708-549E1281B2F8,,,,https://dataspace.ust.hk
39,Dataverse e-cienciaDatos,"e-cienciaDatos is a multidisciplinary data repository that houses the scientific datasets of researchers from the public universities of the Community of Madrid and the UNED, members of the Consorcio Madroño, in order to give visibility to these data, to ensure its preservation and facilitate their access and reuse. e-cienciaDatos is structured as a system constituted by different communities dataverse that collects datasets of each of the individual universities. e-cienciaDatos es un repositorio de datos multidisciplinar que alberga datasets científicos de las univesidades públicas de la Comunidad de Madrid y la UNED - miembros del Consorcio Madroño- para dar visibilidad a estos datos, asegurar su preservación y facilitar tanto su acceso como reulitilación. e-cienciaDatos tiene una comunidad dataverse por universidad con los datasets de dicha universidad.",40.416775,-3.7492,edatos.consorciomadrono.es,True,2017,Spain,Europe,['openaire_data'],1.0,10.2195,eciencia@consorciomadrono.es,3CBFCE5B-C76C-4232-A6AF-1623C2A91A00,http://www.consorciomadrono.es/docs/eCienciaDatosTechnicalDescription.pdf,['https://doi.org/10.34894/CUGYWW'],,https://edatos.consorciomadrono.es
40,DataverseLV,"DataverseLV is a secure and sustainable repository for Latvian researchers to deposit, preserve, and share research data in line with Open Science and FAIR principles. The repository is developed, maintained, and curated by the Latvian Data Stewards Network - a collaborative group of specialists from Latvian research institutions who support researchers, advance research data management, and promote open science practices.",56.950876,24.110668,dv.dataverse.lv,,2025,Latvia,Europe,,0.0,10.71782,kristaps.oskalns@vpc.lv,3F236CF2-8614-44FB-B60C-7A9DAC5AF14C,,,,https://dv.dataverse.lv
41,DataverseNL,"DataverseNL is a data repository hosted by DANS. Researchers associated with the DataverseNL partners (Several universities, higher education and research institutes) are able to deposit data. ",52.08083,4.345672,dataverse.nl,True,2013,Netherlands,Europe,,1.0,␕,info@dataverse.nl,4104EE50-C9CE-44CE-802D-0FD325F9EC99,https://dans.knaw.nl/en/data-services/dataversenl/,['https://www.coretrustseal.org/wp-content/uploads/2018/04/Tilburg-University-Dataverse.pdf'],https://github.com/orgs/IQSS/projects/22,https://dataverse.nl
42,DataverseNO,"DataverseNO (https://dataverse.no/) is a national, generic repository for open research data from researchers from Norwegian research institutions. Some collections within DataverseNO also accept data from researchers from other institutions.",69.649208,18.955324,dataverse.no,True,2017,Norway,Europe,['dataverseno'],1.0,10.1871,support@dataverse.no,424854C4-0339-4A04-808E-F3AE39B840BD,https://site.uit.no/dataverseno/about/,['https://www.coretrustseal.org/wp-content/uploads/2020/03/DataverseNO.pdf'],https://github.com/orgs/IQSS/projects/14,https://dataverse.no
43,DataverseUA,"Development of the Open Data Repository ""DataverseUA"" for the National Academy of Sciences of Ukraine carried out within the framework of the scientific and technical project of the NAS of Ukraine ""Development and implementation of open science infrastructure in the NAS of Ukraine (OPENS)"" for 2023-2024. The Open Data Repository ""DataverseUA"" provides the storing of research data, including documents in digital form, which are obtained in scientific research activities are used as evidence in the research process, and are necessary to confirm conclusions and research results in scientific publications.",50.44528717,30.51258431,opendata.nas.gov.ua,True,2024,Ukraine,Europe,,0.0,,adminDataverseUA@bitp.kyiv.ua,443B2A49-F1C6-4FB2-9EB6-E074A0C4CEA0,,,,https://opendata.nas.gov.ua
44,DATICE,DATICE is a data service and archive for Icelandic social science research data,64.14042,-21.9493,dataverse.rhi.hi.is,True,2020,Iceland,Europe,,0.0,10.34881,felagsvisindastofnun@hi.is,48057197-5148-4D0E-A75A-99CD2CF2420C,,,,https://dataverse.rhi.hi.is
45,Datos para Resiliencia,"Datos para resiliencia is a platform developed by the Chilean Institute for Disaster Resilience (Itrend) that is designed to facilitate the use of data associated with disaster risk management (DRM) for researchers and developers of resilience solutions. It is an open-access tool used for finding, obtaining, sharing and preserving research-quality datasets.",-33.42381139,-70.6163207,datospararesiliencia.cl,True,2024,Chile,South America,,0.0,10.71578,victor.codocedo+dpr@itrend.cl,48D1173C-DA95-42BA-8CB8-36EC9EC130CD,,,,https://datospararesiliencia.cl
46,DeiC Dataverse,"DeiC Dataverse is the Danish National Repository for Research Data and is available to all universities in Denmark. It is operated by the Danish e-infrastructure Consortium, DeiC, in collaboration with the University of Copenhagen.",55.68061837,12.57224588,dataverse.deic.dk,,2024,Denmark,Europe,,0.0,10.60612,sekretariat@deic.dk,49A45ED8-A81C-4C21-A6D5-A889930B63D4,,,,https://dataverse.deic.dk
47,Domus Dados,Repositório de dados de pesquisa Unifesp,-23.53763,-46.788869,domusdados.unifesp.br,,2019,Brazil,South America,,0.0,,repositoriodedados@unifesp.br,ADB4D6A9-EB74-4D2D-937A-B12668C0EB65,,,,https://domusdados.unifesp.br
48,DR-NTU (Data),"The institutional open access research data repository for Nanyang Technological University (NTU). NTU researchers are encouraged to use DR-NTU (Data) to deposit, publish and archive their final research data in order to make their research data discoverable, accessible and reusable.",1.348668,103.683104,researchdata.ntu.edu.sg,True,2017,Singapore,Asia,,1.0,10.21979,library@ntu.edu.sg; yuyun.ishak@ntu.edu.sg; ONGHL@ntu.edu.sg,4AA22DDE-BD6B-4B13-854C-ED90F893C6AA,https://blogs.ntu.edu.sg/lib-datamanagement/about-dr-ntu-data/,,,https://researchdata.ntu.edu.sg
49,DUnAs,"DUnAs is the institutional research data repository of the University of Aveiro. This repository is intended to share, archive, preserve, cite, access, and explore research data produced in the university scientific research activities",40.63078158,-8.657462548,dunas.ua.pt,True,2022,Portugal,Europe,,0.0,10.48527,sbidm-dunas@ua.pt,4ADA8625-6C3B-4667-BDC7-12F2572BA1DA,,,,https://dunas.ua.pt
50,Edmond,Edmond is a research data repository for Max Planck researchers. It is the place to store completed datasets of research data with open access. Edmond serves the publication of research data from all disciplines and offers scientists the ability to create citable research objects.,48.137222,11.575556,edmond.mpdl.mpg.de,True,2022,Germany,Europe,,0.0,,edmond@mpdl.mpg.de,4C65AC6E-981D-4D0B-AB8D-99630CD1AC77,,,,https://edmond.mpdl.mpg.de
51,FGV Dataverse,,-22.94095725,-43.18013239,dataverse.fgv.br,True,2021,Brazil,South America,,0.0,,infra.acad@fgv.br; biblioteca.digital@fgv.br,4C94BEAE-6654-4AAD-A745-854074065181,,,,https://dataverse.fgv.br
52,Florida International University Research Data Portal,The FIU Research Data Portal serves as an inter-disciplinary data archive to support access and reuse of research data produced at FIU.,25.75389,-80.3945539,dataverse.fiu.edu,True,2020,USA,North America,,0.0,,rdm@fiu.edu,4DAD8610-848A-4A0F-8879-59FC200C2119,,,,https://dataverse.fiu.edu
53,Fudan University,Open for Fudan University affiliated researchers to deposit data.,31.298531,121.501446,dvn.fudan.edu.cn,,2014,China,Asia,,1.0,∅,dvn@fudan.edu.cn,534C7561-91B5-4337-BB32-12E0E3CE5691,,,,https://dvn.fudan.edu.cn
54,George Mason University Dataverse,"George Mason University Libraries Dataverse publishes, shares, and preserves data of enduring value produced by George Mason faculty, staff, and students.",38.8306,-77.3078,dataverse.orc.gmu.edu,True,2021,USA,North America,,0.0,10.13021,datahelp@gmu.edu; rmadridr@gmu.edu; btemelso@gmu.edu,5379B5BF-E80D-452C-B751-06DAF048F220,https://library.gmu.edu/dataverse,,,https://dataverse.orc.gmu.edu
55,Gustave Eiffel University Dataverse,Les données de recherche de l'Université Gustave Eiffel,48.84300627,2.587602512,data.univ-gustave-eiffel.fr,True,2017,France,Europe,,0.0,,,579774AC-BFBF-4A76-8A95-1DE68C9B10E0,,,,https://data.univ-gustave-eiffel.fr
56,Göttingen Research Online,"Göttingen Research Online is an institutional repository for the publication of research data at the Göttingen Campus. It is managed by the Göttingen eResearch Alliance, a joint group of the Göttingen State and University Library and Gesellschaft für wissenschaftliche Datenverarbeitung mbH Göttingen.",51.533713,9.932198,data.goettingen-research-online.de,True,2019,Germany,Europe,,1.0,10.25625,info@eresearch.uni-goettingen.de,53A9B64D-322E-46EC-BD3C-E2B687C60992,,,,https://data.goettingen-research-online.de
57,Harvard Dataverse,"Share, archive, and get credit for your data. Find and cite data across all research fields.",42.375646,-71.113212,dataverse.harvard.edu,True,2008,USA,North America,['IQSS'],1.0,10.791,support@dataverse.harvard.edu,57B6E0DD-B371-4AFE-A0C0-FB22621DDD73,,,https://github.com/orgs/IQSS/projects/19,https://dataverse.harvard.edu
58,HeiDATA,Open for Heidelberg University affiliated researchers to deposit data.,49.39875,8.672434,heidata.uni-heidelberg.de,True,2014,Germany,Europe,['heidata'],0.0,10.11588,data@uni-heidelberg.de,580AF7A2-462E-473F-B9D8-3AAA7244898D,,,,https://heidata.uni-heidelberg.de
59,IBICT,"The network Cariniana, cariniana.ibict.br,  is funded entirely by the Brazilian government and in particular by MCTI (Ministério da Ciência, Tecnologia e Inovação). It is a project for long-term preservation of scientific publications in Brazil.",-15.805842,-47.881369,repositoriopesquisas.ibict.br,True,2015,Brazil,South America,,0.0,10.5072,,5A6D25EE-6DAD-4AB9-89C3-6E3E552D5635,,,,https://repositoriopesquisas.ibict.br
60,ICRISAT,"International Crops Research Institute for the Semi-Arid Tropics.  Free open data repository of ICRISAT research data including Social science, Phenotypic, Genotypic, Spatial and Soil & Weather data which are linked with open publications.",17.385,78.4867,dataverse.icrisat.org,True,2012,India,Asia,['icrisat'],0.0,10.21421,dataverse.biu@gmail.com; a.rathore@cgiar.org,5F0C29CA-F98D-4610-9296-E2581C89EBE6,,,,https://dataverse.icrisat.org
61,ICWSM,Datasets from the International AAAI Conference on Web and Social Media (ICWSM).,37.432057,-122.175297,dataverse.mpi-sws.org,,2018,Germany,Europe,,0.0,10.5072,,5FF08B33-B993-4F9C-9F10-AB41C33DC54E,http://guides.dataverse.org/en/4.8.5/user,,,https://dataverse.mpi-sws.org
62,IDSC Dataverse,"The IDSC Dataverse is the Data Repository of the IDSC - International Data Service Center of IZA - Institute of Labor Economics. It was created as part of a project sponsored by the German Federal Ministry of Education and Research whose aim was to produce building blocks for research data trustees. The purpose of the IDSC Dataverse is to serve the needs of researchers and entities associated with IZA and make datasets available for replication, secondary research and teaching purposes. It adheres to the FAIR data principles.",50.7300529,7.109468,dataverse.iza.org,True,2024,Germany,Europe,,0.0,10.15185,idsc@iza.org,61F7254C-4D67-4A49-880C-3A0A385B41D9,https://idsc.iza.org,,,https://dataverse.iza.org
63,IFDC Dataverse,"Over the years, IFDC has conducted numerous research and demonstration trials across its global programs and projects. Looking to avoid poor documentation, loss of data, and to boost the efficiency of data usage and decision-making abilities, IFDC has implemented a center-wide initiative to collect all research and development data in standard accessible formats, collate all data and analyses, and to make it available through IFDC solutions. The Dataverse came to corroborate with the IFDC idea to implement the FAIR principles and make the data easily findable, accessible, interoperable, and reusable.",34.76992466,-87.6541439,dataverse.ifdc.org,True,2021,USA,North America,,0.0,,wpavan@ifdc.org,62569804-0F4B-4F0A-8EA1-205AEAC9D286,,,,https://dataverse.ifdc.org
64,IISH Dataverse,"The IISH Dataverse contains micro-, meso-, and macro-level datasets on social and economic history.",52.369021,4.939226,datasets.iisg.amsterdam,True,2015,Netherlands,Europe,,0.0,10622,info@iisg.nl,630C67C2-7D9F-4161-A0C7-4E0E69B83FF2,,,,https://datasets.iisg.amsterdam
65,Indata,"CEDIA's Research Data Repository preserves, disseminates and gives access to research data generated by its academics and researchers. In order to grant visibility, this repository guarantees its conservation and makes easier its access and reuse. Researchers, journals, data authors, publishers, data distributors, and affiliated institutions receive academic credit and visibility on the web.",-2.90791,-79.0108,indata.cedia.edu.ec,True,2020,Ecuador,South America,,0.0,10.23667,neg@cedia.org.ec,64AAA99D-F229-495F-8344-9067ED46C9E5,,,,https://indata.cedia.edu.ec
66,Institute of Russian Literature Dataverse,An institutional repository hosted by the Institute of Russian Literature (Pushkinskij Dom) of the Russian Academy of Sciences at Saint Petersburg. It is meant to serve as a public platform to publish and host open data on Russian Literature and folklore. The repository will host data created in the Institute and by the wider research community.,59.944883,30.301463,dataverse.pushdom.ru,True,2020,Russia,Europe,,0.0,10.3186,,660FC90F-AF10-44A0-8E93-5C8CB4D4E4D6,,,,https://dataverse.pushdom.ru
67,International Potato Center,"Centro Internacional De La Papa (International Potato Center) is a member of the CGIAR Consortium, an international organization made up of 15 centers engaged in research for a food secure future.",-12.077791,-76.946888,data.cipotato.org,True,2019,Peru,South America,,0.0,10.21223,CIP-RIU@cgiar.org,676B5D6C-5983-44AE-8E87-D986832DE38B,,,,https://data.cipotato.org
68,ioerDATA,ioerDATA is the institutional research data publication repository of the Leibniz Institute of Ecological Urban and Regional Development (IOER). It is managed and curated by the institute's Research Data Centre (IOER FDZ).,51.03139516,13.74817927,data.fdz.ioer.de,,2025,Germany,Europe,,0.0,10.7183,fdz@ioer.de,6E4B5F34-1FAB-4C84-8659-8939A2B48B5F,,,,https://data.fdz.ioer.de
69,IPGP Research Collection,"A repository for sharing and preserving research data and documents produced, collected and curated at the Institut de physique du globe de Paris (IPGP).",48.844925,2.356274,dataverse.ipgp.fr,True,2022,France,Europe,,0.0,10.18715,rc-support@ipgp.fr,6897A9F2-24CB-47A5-8209-9B0E5AEFBFEB,,,,https://dataverse.ipgp.fr
70,Italian Institute of Technology (IIT),"IIT Dataverse is the research data repository of Istituto Italiano di Tecnologia and has been launched in May 2021. IIT’s research activity is focused on cutting-edge science in four Research Domains (Computational Sciences, LifeTech, Nanomaterials, and Robotics) and promotes excellence in basic and applied research. IIT Dataverse offers long-term storage and preservation to research data of IIT-affiliated researchers. IIT is also member of the Global Dataverse Community Consortium",44.475,8.9062,dataverse.iit.it,True,2021,Italy,Europe,,0.0,,rdm@iit.it,68EF9EBE-4806-46BF-B554-380CA5CC8DCD,,,,https://dataverse.iit.it
71,Johns Hopkins Research Data Repository,"The Johns Hopkins Research Data Repository is an open access repository for Johns Hopkins researchers to share their research data. It is administered by professional curators at JHU Data Services, who will work with depositors to enable future discovery and reuse of your data.",39.329055,-76.620335,archive.data.jhu.edu,True,2013,USA,North America,['jhuda_all'],1.0,10.7281,dataservices@jhu.edu,69B0AEEF-B263-48CC-A065-801FAACBE762,,,,https://archive.data.jhu.edu
72,JPL Open Repository,"The JPL Open Repository (JOR), replaces the JPL Technical Report Server (TRS) in 2023, is a repository for digital copies of technical publications authored by JPL employees. It includes journal articles (the Final Accepted Version), meeting papers, presentations, and other publications cleared for external distribution from 1992 to the present. It also include research datasets from 2022 on.",34.201815,-118.172889,dataverse.jpl.nasa.gov,True,2022,USA,North America,,0.0,10.48577,library@jpl.nasa.gov,6C0D689A-FF69-4481-BE39-102EC840ADC0,,,https://github.com/orgs/IQSS/projects/42,https://dataverse.jpl.nasa.gov
73,Jülich DATA,Jülich DATA is the institutional research data repositorium made at Forschungszentrum Jülich. Featuring metadata focus and running on Kubernetes.,50.90683,6.41026,data.fz-juelich.de,True,2020,Germany,Europe,,0.0,10.26165,forschungsdaten@fz-juelich.de,6F12EF97-09ED-4ADC-AE13-D759126BDE4F,https://www.fz-juelich.de/zb/rdm,,https://github.com/orgs/IQSS/projects/4,https://data.fz-juelich.de
74,KEEN Data Management Platform,The KEEN Data Management Platform is a common central Data Management and Storage Platform for KEEN project. (KEEN Project Link : http://keen-plattform.de),51.03412406,13.71038,keen.zih.tu-dresden.de,True,2021,Germany,Europe,,0.0,10.57826,lincoln.sherpa@tu-dresden.de,75221A66-1ADF-49C1-BB12-90B42B1C3E11,,,,https://keen.zih.tu-dresden.de
75,KU Leuven RDR,RDR is the institutional research data repository created by KU Leuven in collaboration with LIBIS and Dataverse to help its researchers publish and share their research data.,50.87905722,4.701788999,rdr.kuleuven.be,True,2022,Belgium,Europe,,0.0,,rdr@kuleuven.be,76124BD4-6AF8-4251-9F34-E1A18AFC31F5,,['https://doi.org/10.34894/X9G8HU'],https://github.com/orgs/IQSS/projects/39,https://rdr.kuleuven.be
76,Libra Data,"LibraData is a place for UVA researchers to share data publicly, and is part of the Libra Scholarly Repository suite of services which includes works of UVA scholarship such as articles, books, theses, and data.",38.034578,-78.507394,dataverse.lib.virginia.edu,True,2016,USA,North America,['UVA-Libra-Data'],1.0,10.1813,libra@virginia.edu,77266292-3FDE-49ED-9101-4982C5BDC513,http://www.library.virginia.edu/libra/datasets/,,https://github.com/orgs/IQSS/projects/10,https://dataverse.lib.virginia.edu
77,Lithuanian Data Archive for Social Sciences and Humanities (LiDA),"Lithuanian Data Archive for Social Sciences and Humanities (LiDA) is a virtual digital infrastructure for data acquisition, long-term preservation and dissemination. It provides access to more than 700 datasets. All the international and national data resources are documented in both Lithuanian and English. Access to the data is provided via this Dataverse repository (not all the datasets are available, as in 2019-2021 a migration project from the old infrastructure is being implemented). LiDA curates most of the data collected conducting the most important international social surveys in Lithuania – the European Social Survey, European Values Studies, European Election Studies and the International Social Research Program. LiDA is hosted by the Centre for Data Analysis and Archiving of Kaunas University of Technology (data.ktu.edu).",54.89910355,23.91710186,lida.dataverse.lt,True,2021,Lithuania,Europe,,0.0,,data@ktu.lt,7A672783-549E-4B01-ACA2-CAA7F61A229B,,,,https://lida.dataverse.lt
78,Maine Dataverse Network,A service brought to you by the ACG@UMaine. The way Supercomputing should be!,44.901349,-68.671815,dataverse.acg.maine.edu/dvn,,2013,USA,North America,,0.0,␕,chris.wilson@maine.edu,7C8C4241-9FDC-44A8-8E48-BBDD1B3C330A,,,,https://dataverse.acg.maine.edu/dvn
79,MBLWHOI Library Dataverse,"MBLWHOI Library Dataverse is operated by Woods Hole Oceanographic Institution Data Library and Archive. Its purpose is to store, share, and preserve scientific datasets, particularly those related to oceanographic and marine science research. It enables researchers to make their data publicly accessible, ensures long-term data stewardship, and supports reproducibility and transparency in scientific research.",41.53275028,-70.6503445,dataverse.whoi.edu,,2025,USA,North America,,0.0,10.26027,kbatyuk@whoi.edu,8290337E-7AF5-4E68-BC68-8F85E282FC1B,,,,https://dataverse.whoi.edu
80,MELDATA,The Dataverse portal of the International Center for Agricultural Research in Dry Ares.,33.88863,35.49548,data.mel.cgiar.org,True,2019,Lebanon,Asia,,0.0,␕,mel-support@cgiar.org,86AABF7D-2D5D-4FC3-AE24-9C958AD32BE2,,,,https://data.mel.cgiar.org
81,NIE Data Repository,"NIE Data Repository is the institutional open access research data repository for National Institute of Education, Singapore. NIE researchers are encouraged to use NIE Data Repository to deposit, publish and archive their final research data in order to make their research data discoverable, accessible and reusable.",1.349115,103.678829,researchdata.nie.edu.sg,True,2019,Singapore,Asia,,0.0,10.2534,libscomm@nie.edu.sg,8B9EBAB3-727E-42FD-9B49-68478A46AE96,,,,https://researchdata.nie.edu.sg
82,NIOZ Dataverse,"Open access repository for marine research data collected, processed and published by the Royal Netherlands Institute for Sea Research",53.003259,4.785834,dataverse.nioz.nl,True,2020,Netherlands,Europe,,0.0,,taco.de.bruin@nioz.nl,8C41757B-9C69-4561-B8C8-69ACA632F288,,,,https://dataverse.nioz.nl
83,NYCU Dataverse,"NYCU Dataverse is the institutional research data repository of the National Yang Ming Chiao Tung University. This repository is aimed to share, archive, preserve, cite, access, and explore research data produced in the university. Datasets deposited to the NYCU Dataverse and published are automatically given a citation and a persistent link, increasing the researcher's impact, and visibility of research.",24.7867714,120.9984256,dataverse.lib.nycu.edu.tw,True,2022,Taiwan (ROC),Asia,,0.0,10.5777,RDM@lib.nycu.edu.tw,94288AA2-9DC7-4F48-9F8A-7695069732F0,,,,https://dataverse.lib.nycu.edu.tw
84,ODISSEI Portal,"ODISSEI (Open Data Infrastructure for Social Science and Economic Innovations) is the Dutch national research infrastructure for the social sciences in the Netherlands. ODISSEI brings together researchers with the necessary data, expertise and resources to conduct ground-breaking research and embrace the computational turn in social enquiry.",52.369021,4.939226,portal.odissei.nl,True,2022,Netherlands,Europe,,0.0,,info@odissei-data.nl,95D2548A-00A0-4751-A804-B4BDEFC9C99B,,,,https://portal.odissei.nl
85,Open Data @ UCLouvain,Université catholique de Louvain - Belgium,50.669868,4.615608,dataverse.uclouvain.be,True,2019,Belgium,Europe,,0.0,10.14428,patrick.vranckx@uclouvain.be,98C4070F-8488-43B7-A3C4-F2B2CE28693F,,,,https://dataverse.uclouvain.be
86,Open Forest Data,Podlasie digital repository of natural science data,52.70329227,23.86781611,dataverse.openforestdata.pl,True,2020,Poland,Europe,,0.0,10.4837,jlapinska@ibs.bialowieza.pl,9CA6095C-5151-4C39-9F28-CC8DF388FE84,https://openforestdata.pl/,,,https://dataverse.openforestdata.pl
87,osnaData,"osnaData, the institutional research data repository of the Osnabrück University. osnaData offers all members of the university the possibility to publish their scientific research data according to the FAIR principles (Findable, Accessible, Interoperable, Reusable), thus making them visible, validatable and reusable worldwide. The research data repository osnaData is committed to the idea of Open Access as well as Open Science. Research data of all types and formats are published.",52.27329055,8.045669207,osnadata.ub.uni-osnabrueck.de,True,2021,Germany,Europe,,0.0,10.26249,osnadata@ub.uni-osnabrueck.de,9FE74206-8146-4EBB-8292-8C0A45838819,,,,https://osnadata.ub.uni-osnabrueck.de
88,PAPYRUS,"Papyrus is a multidisciplinary data repository, which houses the scientific data sets of research projects carried out by the Colombian institutions belonging to the Colombia Consortium, whose purpose is to give the data visibility, guarantee their preservation and facilitate their access, retrieval and reuse through centralized custody and management.",4.5709,-74.2973,papyrus-datos.co,True,2022,Colombia,South America,,0.0,10.57924,consortia@papyrus-datos.com,A0044A4B-25F9-46B3-9425-99B378EE0062,,,,https://papyrus-datos.co
89,Peking University,Peking University Open Research Data Platform,39.993923,116.306539,opendata.pku.edu.cn,True,2014,China,Asia,,0.0,10.1817,luopc@lib.pku.edu.cn; opendata@lib.pku.edu.cn,A0A99C75-233B-4DFC-BEA3-1F9E17BC2643,http://opendata.pku.edu.cn/about.xhtml,,,https://opendata.pku.edu.cn
90,PolyU Research Data Repository,"The PolyU Research Data Repository is an open-access repository for PolyU researchers to store, manage, and share their valuable research data. It encourages worldwide discovery and reuse of research data generated by PolyU researchers.",22.30344,114.1799,researchdata.lib.polyu.edu.hk,,2024,Hong Kong,Asia,,0.0,,,A22B2347-2279-497F-BBB6-52B74A3C3A89,,,,https://researchdata.lib.polyu.edu.hk
91,Pontificia Universidad Católica del Perú,"El Instituto de Opinión Pública de la Pontificia Universidad Católica del Perú (IOP) se creó a finales del 2005 con la finalidad de generar un mayor conocimiento acerca de los fenómenos que interesan, preocupan y afectan a la sociedad peruana. Teniendo como eje metodológico el estudio de la opinión pública, el IOP investiga las creencias, actitudes y sentimientos que configuran las dinámicas sociales en el Perú.",-12.068924,-77.079338,datos.pucp.edu.pe,True,2019,Peru,South America,,0.0,␕,raul.sifuentes@pucp.pe,A3763EFE-4F24-4B96-8552-9E23E2FEE838,,,,https://datos.pucp.edu.pe
92,QDR Main Collection,"QDR curates, stores, preserves, publishes, and enables the download of digital data generated through qualitative and multi-method research in the social sciences. The repository develops and disseminates guidance for managing, sharing, citing, and reusing qualitative data, and contributes to the generation of common standards for doing so. QDR’s overarching goals are to make sharing qualitative data customary in the social sciences, to broaden access to social science data, and to strengthen qualitative and multi-method research.",43.038013,-76.135566,data.qdr.syr.edu,True,2018,USA,North America,['qdr_whole'],1.0,10.5064,qdr@syr.edu,A3806EB2-9CEB-4462-8038-E83FBF0AC39C,https://qdr.syr.edu/about,['https://www.coretrustseal.org/wp-content/uploads/2018/11/Qualitative-Data-Repository.pdf'],https://github.com/orgs/IQSS/projects/6,https://data.qdr.syr.edu
93,Recherche Data Gouv,"The Research Data Gouv platform is the national federated platform for open and shared research data serving the national scientific community. This platform was an integral part of the Second National Plan for Open Science (PNSO) and offers a multidisciplinary data repository, a registry which reports data hosted in other repositories and a web portal. The multidisciplinary repository is a sovereign publishing solution for sharing and opening up data for communities which are yet to set up their own recognised thematic repository.",48.801407,2.130122,entrepot.recherche.data.gouv.fr,True,2022,France,Europe,['ALL'],0.0,,admin-recherchedatagouv@inrae.fr,A9733740-F25F-476F-8EE0-D0DE97FDCB56,https://recherche.data.gouv.fr,,https://github.com/orgs/IQSS/projects/67,https://entrepot.recherche.data.gouv.fr
94,Redape - Repositório de Dados de Pesquisa da Embrapa,"Redape - Embrapa Research Data Repository is an institutional data repository that aims to preserve and facilitate the retrieval of scientific data produced by the Brazilian Agricultural Research Corporation. It allows the organization, management and publication of data according to the principles that guide scientific data management around the world, including accessibility, interoperability, reproducibility and reuse.",-22.888889,-47.077778,redape.dados.embrapa.br,,2022,Brazil,South America,,0.0,10.48432,redape@embrapa.br,AB01354D-2E35-4218-AB55-28C08C03CE62,,,,https://redape.dados.embrapa.br
95,RepOD,"RepOD is a general-purpose repository for open research data, available to all members of the academic community in Poland. It is designed to accommodate scholarly data from all disciplines and in any format. RepOD aims to provide a secure space where research data can be safely stored and openly shared with others.",52.1923,21.0219,repod.icm.edu.pl,,2015,Poland,Europe,,0.0,10.1815,repod@icm.edu.pl,AB605A35-F8EB-4528-AA69-6D70D6CF46A7,,,,https://repod.icm.edu.pl
96,Repositorio de Datos Abiertos de Investigación (Redata),"El Repositorio de Datos Abiertos de Investigación de Uruguay (Redata) busca incentivar la publicación y reutilización de los resultados de datos de investigaciones nacionales de cualquier área o disciplina. Es un proyecto de la Agencia Nacional de Investigación e Innovación (ANII) de Uruguay y forma parte del Sistema Nacional de Repositorios Digitales Abiertos de ciencia y tecnología (SILO), una red de repositorios de acceso abierto interoperables, conformada por instituciones del sistema científico y tecnológico uruguayo, que promueve el acceso, la preservación y visibilidad de la producción nacional en ciencia y tecnología",-34.8781547,-56.07650597,redata.anii.org.uy,True,2024,Uruguay,South America,,1.0,10.60895,redata@anii.org.uy,B244FC4F-C881-454E-9B92-B3036BB7F86F,,,,https://redata.anii.org.uy
97,Repositorio de Datos Académicos RDA-UNR,"El Repositorio de Datos Académicos UNR (RDA-UNR) permite compartir, archivar, acceder, explorar y citar los datos de investigación gestionados por los docentes, investigadores y alumnos de la UNR, con el fin de dar visibilidad a los datos, potenciando su acceso, su reutilización y garantizando su preservación a largo plazo. Es un repositorio de auto publicación, en el cual los usuarios cargan, organizan, describen y publican sus datos. Cuentan para hacerlo con la ayuda de un equipo de curadores, guías y sesiones de entrenamiento. The Academic Data Repository of the National University of Rosario (RDA- UNR) allows for sharing, storing, accessing, exploring, and citing research data managed by UNR professors, researchers and students so as to make these data visible and promote its use and reutilization, ensuring its long-term preservation. It is a self-publishing repository, i.e. users upload, organize, describe and publish their own data with the assistance of a team of curators, user guides and training sessions.",-32.95019324,-60.63599687,dataverse.unr.edu.ar,True,2022,Argentina,South America,,0.0,10.57715,repositoriodatos@unr.edu.ar,B52D02C7-8229-4FF6-B021-822C9F61E2CC,,,,https://dataverse.unr.edu.ar
98,Repositorio de datos de investigación de la Universidad de Chile,"El Repositorio de datos de investigación de la Universidad de Chile conserva, difunde y proporciona acceso a los datos de investigación generadas por sus académicos e investigadores, con el fin de dar visibilidad a dichos datos, garantizar su preservación y facilitar su acceso y reutilización.",-33.45,-70.666667,datos.uchile.cl,True,2019,Chile,South America,,0.0,,sisib@uchile.cl,B6E9C3E8-C656-42F5-8A71-2A52F14573CC,,,,https://datos.uchile.cl
99,Repositorio de Datos de Investigación de la Universidad Nacional de La Plata,"El Repositorio de Datos de Investigación de la Universidad Nacional de La Plata es una plataforma en línea dedicada a la organización y difusión de datos de investigación para toda la comunidad académica de la UNLP. El objetivo de esta plataforma es reunir y dar acceso a los datos generados desde todos los ámbitos de la UNLP para garantizar su preservación, fomentar el reuso y maximizar el impacto de los mismos. El proyecto surge como respuesta de la UNLP a las obligaciones planteadas en la ley 26.899 y a numerosos requerimientos institucionales de resguardo y difusión de conjuntos de datos de gran valor académico. El Repositorio de Datos de Investigación se integra al conjunto de servicios brindados desde la UNLP orientados a optimizar la gestión, maximizar la difusión y preservar toda la producción intelectual de la Universidad.",-34.90724904,-57.94223174,datos.unlp.edu.ar,True,2023,Argentina,South America,,0.0,10.35537,datos@sedici.unlp.edu.ar,B727164E-AC28-44A0-B7D2-445A8B50BDE1,,,,https://datos.unlp.edu.ar
100,Repositorio de datos de Investigación UdeA,"The Research Data Management System (GDI) is a service provided by the Library System and the Vice-Rectorate for Research of the University of Antioquia, designed specifically for researchers and operated online through the Dataverse platform. Its main function is to manage the collection of open data produced by the University in the course of teaching, research and extension activities.",6.230833,-75.590553,datosdeinvestigacion.udea.edu.co,,2024,Colombia,South America,,0.0,10.60905,repositoriodedatos@udea.edu.co,B80557F6-DEB9-48FE-97CF-4A4981F870C5,,,,https://datosdeinvestigacion.udea.edu.co
101,Repositorio de Datos de Investigación Universidad del Rosario,Explore research data from Universidad del Rosario affiliated researchers.,4.600598,-74.073352,research-data.urosario.edu.co,True,2019,Colombia,South America,,0.0,10.34848,researchdata@urosario.edu.co,B8C59071-7A52-4BA5-96C6-715AA488118D,,,,https://research-data.urosario.edu.co
102,Repositorio de Datos de Investigación USACH,"Plataforma para que las personas investigadoras afiliadas a la Universidad de Santiago de Chile compartan, gestionen y difundan los datos de investigación, tanto para la comunidad interna como externa, acercando el conocimiento generado a la población.",-33.44753446,-70.68391782,datos.usach.cl,True,2023,Chile,South America,,0.0,10.60547,admin.dataverse@usach.cl,B99E0536-76FC-444D-ABE3-34290727BAB9,,,,https://datos.usach.cl
103,Repositorio de datos de la Universidad de Concepción,"El repositorio de Datos de la Universidad de Concepción, tiene como objetivo conservar, visibilizar y poner a disposición los datos y/o complementos de información utilizada en los proyectos de investigación por nuestros académicos y/o investigadores.",-36.83226768,-73.03503217,datav.udec.cl,True,2022,Chile,South America,,0.0,10.48665,bibliotecas@udec.cl,BB34848C-FE7B-4FBD-BFCF-A26FA197B96C,,,,https://datav.udec.cl
104,Repositorio de Datos de la Universidad del Pacífico (DatasetsUP),El Repositorio de Datos de Investigación (Datasets UP) de la Universidad del Pacífico es una plataforma que contiene conjuntos de datos generados o utilizados por nuestros investigadores en la realización de sus proyectos de investigación. Se comparten en el repositorio como parte de nuestra contribución al desarrollo de la ciencia abierta.,-12.0835487,-77.0511725,datasets.up.edu.pe,,2022,Peru,South America,,0.0,,repositorio@up.edu.pe,BD4B0F02-0FC1-453C-B61E-B42459D12BE3,,,,https://datasets.up.edu.pe
105,Repositorio de Datos Pontificia Universidad Javeriana,"Pontificia Universidad Javeriana's Research Data Repository preserves, disseminates and gives access to research data generated by its academics and researchers. In order to grant visibility, this repository guarantees its conservation and makes easier its access and reuse. Researchers, journals, data authors, publishers, data distributors, and affiliated institutions receive academic credit and visibility on the web.",4.628582604,-74.06465321,dataverse.javeriana.edu.co,True,2024,Colombia,South America,,0.0,,durangouf@javeriana.edu.co,BFCF7C87-CC8B-420A-B738-CA831E053A68,,,,https://dataverse.javeriana.edu.co
106,Repositorio de Datos Universidad Distrital Francisco José de Caldas,"El Repositorio de Datos de Investigación de la Universidad Distrital Francisco José de Caldas (REDI) es un espacio digital diseñado para compartir, preservar y promover los resultados de las investigaciones realizadas por nuestra comunidad académica. Docentes e investigadores y estudiantes pueden depositar, organizar y dar a conocer sus datos de investigación, contribuyendo a la visibilidad, el acceso abierto y la reutilización del conocimiento generado en nuestra institución. - The Research Data Repository of Universidad Distrital Francisco José de Caldas  (REDI) is a digital space designed to share, preserve and promote the results of research carried out by our academic community. Teachers and researchers and students can deposit, organize and make known their research data, contributing to the visibility, open access and reuse of the knowledge generated in our institution.",4.615152446,-74.09370563,datosinvestigacion.udistrital.edu.co,,2024,Colombia,South America,,0.0,,biblio@udistrital.edu.co; repositorio@udistrital.edu.co,C094CD5A-FB8F-4BC7-8510-492F56EF2055,,,,https://datosinvestigacion.udistrital.edu.co
107,Repositorio TECdatos,"El Repositorio de Datos de Investigación del Tecnológico de Costa Rica, se ha implementado con el propósito de preservar, difundir y proporcionar acceso a los datos de investigación generados por los académicos, investigadores y estudiantes de la Universidad. La iniciativa se enfoca en aumentar la visibilidad de los datos de investigación, asegurando su preservación a largo plazo y facilitando su acceso y reutilización por parte de la comunidad científica y el público en general. El repositorio también fomenta la transparencia y la integridad de la investigación al ofrecer un acceso libre y abierto a los datos, lo que permite una mayor colaboración y un avance mas rápido en el conocimiento científico.",9.854961731,-83.91238269,dataverse.tec.ac.cr,True,2024,Costa Rica,North America,,0.0,10.18845,datatec@itcr.ac.cr,C39D7ADA-D063-4979-9C42-E1B71722BC19,,,,https://dataverse.tec.ac.cr
108,Repositório de Dados de Pesquisa da UFABC,,-23.643807,-46.528304,dataverse.ufabc.edu.br,,2018,Brazil,South America,,0.0,10.5072,biblioteca@ufabc.edu.br,B0B102C5-D634-40D4-BE8C-9A4244552F39,,,,https://dataverse.ufabc.edu.br
109,Repositório de Dados de Pesquisa do ILEEL,Research data repository of Institute of Linguistics and Literature / Federal University of Uberlandia,-18.908702,-48.291944,dataverse.ileel.ufu.br,,2019,Brazil,South America,,0.0,∅,,B1F1ACF5-4781-4055-BF02-B7A3F29FA434,,,,https://dataverse.ileel.ufu.br
110,Repositório Polen,"Repositório Polen, is maintained by the FCT through its Scientific Computation Unit (FCCN). It aims to serve the Portuguese Scientific Community, providing it with a repository to hold their research data.",38.7592697,-9.142404541,repositorio.polen.fccn.pt,True,2022,Portugal,Europe,,0.0,10.57979,polen@fccn.pt,C0CDC2A8-8E2A-4DA4-8BEC-484577F3C508,,,https://github.com/orgs/IQSS/projects/38,https://repositorio.polen.fccn.pt
111,Repositórios Piloto da Rede Nacional de Ensino e Pesquisa,,-22.957167,-43.176211,dadosabertos.rnp.br,,2019,Brazil,South America,,0.0,,,C4D7F793-83CE-4242-995A-91D248BE60FE,,,,https://dadosabertos.rnp.br
112,Reposítorio SoilData,SoilData is the largest Brazilian soil data repository! Here you will find data on various soil properties from numerous locations in the country. You can also publish soil data that you have produced.,-24.85870956,-54.33449022,soildata.mapbiomas.org/,,2023,Brazil,South America,,0.0,10.60502,ciencia@mapbiomas.org,C1E1B0F7-9BB4-445C-B592-C862658AC1C7,,,,https://soildata.mapbiomas.org/
113,RODBUCK UKEN,"RODBUK Cracow Open Research Data Repository enables University of the National Education Commission researchers and doctoral students pursuing research projects to deposit, archive and make publicly available data from various disciplines and in various formats. Each dataset that is deposited in the repository will be automatically assigned a DOI identifier. Use of RODBUK for users is fully free of charge.",50.07383503,19.90838435,uken.rodbuk.pl,True,2023,Poland,Europe,,0.0,10.24917,,C4E5FFBD-576D-49E5-9CBB-E9D5AB9AC3EE,,,,https://uken.rodbuk.pl
114,RODBUK,"RODBUK Cracow Open Research Data Repository was founded on the initiative of Board of Directors of the Cracow Library Group. The purpose of RODBUK is to collect, develop, archive and make available in open access all types of research data created by researchers, PhD candidates and students in the course of scientific activity. RODBUK is co-created by six Cracow universities:AGH University of Science and Technology, University of Physical Education in Krakow, Cracow University of Technology, Krakow University of Economics, Jagiellonian University in Kraków, Pedagogical University of Krakow.",50.06909616,19.90931184,rodbuk.pl,True,2023,Poland,Europe,,0.0,,,C5EA3364-2C35-4576-B09E-C229FF8EAE65,,['https://doi.org/10.34894/BI2NDV'],,https://rodbuk.pl
115,RODBUK AGH,"RODBUK Cracow Open Research Data Repository enables AGH University of Krakow researchers, doctoral students and postdoctoral fellows pursuing research projects to deposit, archive and make publicly available data from various disciplines and in various formats. Each dataset that is deposited in the repository will be automatically assigned a DOI identifier. Use of RODBUK for users is fully free of charge.",50.06563519,19.92166498,agh.rodbuk.pl,True,2023,Poland,Europe,,0.0,,,C5FA5717-B6EA-48AD-960B-7D6F06AF0C3C,,,,https://agh.rodbuk.pl
116,RODBUK PK,"RODBUK Cracow Open Research Data Repository of Cracow University of Technology is used to collect, store and publicly share research data created during scientific works and research projects carried out by the CUT scientific staff. RODBUK is open to all scientific units interested in depositing and sharing their research data. RODBUK usage is free of charge.",50.07103793,19.94238993,pk.rodbuk.pl,True,2023,Poland,Europe,,0.0,,,C62308F9-C29C-4041-A560-2A45FD61FA62,,,,https://pk.rodbuk.pl
117,RODBUK UEK,"RODBUK Cracow Open Research Data Repository of the Krakow University of Economics collects, archives and makes available in open access research data created during scientific works and research projects carried out by research staff and doctoral students of KUE. Each dataset placed in the Repository will be automatically assigned a DOI identifier. All published metadata will meet the guidelines provided by OpenAIRE. FAIR principles are applied in the Repository. The use of the Repository is free of charge.",50.06870903,19.95618875,uek.rodbuk.pl,True,2023,Poland,Europe,,0.0,,,CA3FBC41-7395-494F-B86C-313841A91234,,,,https://uek.rodbuk.pl
118,RODBUK UJ,"RODBUK Cracow Open Research Data Repository enables Jagiellonian University researchers, doctoral students and postdoctoral fellows pursuing research projects to deposit, archive and make publicly available data from various disciplines and in various formats. Each dataset that is deposited in the repository will be automatically assigned a DOI identifier. Use of RODBUK for users is fully free of charge.",50.06154726,19.92251074,uj.rodbuk.pl,True,2023,Poland,Europe,,0.0,,,CB3638A9-4812-45F2-B1CA-D46F52640DCB,,,,https://uj.rodbuk.pl
119,RSU Dataverse,"The Riga Stradins University Research Data Repository preserves, disseminates, and provides access to research data generated by its RSU scholars and researchers, in order to give visibility to such data, ensure its preservation and facilitate its access and reuse and comply with FAIR principles.",56.95435221,24.05501028,dataverse.rsu.lv,True,2020,Latvia,Europe,,0.0,10.4851,,CDEA25D1-AB2F-43C4-B266-6663D15AF811,,,,https://dataverse.rsu.lv
120,Sano,The Dataverse instance of Sano Centre for Computational Medicine,50.06741043,19.92246206,sano.rodbuk.pl,,2025,Poland,Europe,,0.0,10.7158,rodbuk@sanoscience.org,CE4CCA77-3D56-41D1-83B1-3A80FC57EE54,,,,https://sano.rodbuk.pl
121,SciELO Data,"SciELO Data is a multidisciplinary repository for deposition, preservation and dissemination of research data from articles submitted and approved for publication, already published in SciELO Network journals or deposited in SciELO Preprints.",-23.595747,-46.647352,data.scielo.org,True,2020,Brazil,South America,,0.0,10.48331,data@scielo.org,CF83E3B6-8444-4C50-858B-BFE96B680490,,,,https://data.scielo.org
122,SODHA,The federal Belgian data archive for social sciences and the (digital) humanities! SODHA is the Belgian service provider in the Consortium of European Social Science Data Archives (CESSDA ERIC) and is hosted by the State Archives of Belgium. SODHA was built with the help of DEMO (UCLouvain) and Interface Demography (VUB).,50.84241,4.356423,www.sodha.be,True,2019,Belgium,Europe,,0.0,10.34934,sodha@arch.be,CF8B8E41-0138-4CF6-A1FB-11B1F4DFB8EE,,,https://github.com/orgs/IQSS/projects/21,https://www.sodha.be
123,Tecnológico de Monterrey Data Hub,The Tecnológico de Monterrey's Data Hub offers Open Data generated by our researchers and other initiatives. This initiative is sponsored by both the Living Lab & Data Hub of the Institute for the Future of Education (IFE and the Tecnologico de Monterrey's Research Office. This repository is organized by Institutes and Schools.,25.6515649,-100.28954,datahub.tec.mx,True,2021,Mexico,North America,,0.0,10.57687,research.datahub@servicios.tec.mx,D0E76B45-CFEB-40CB-A240-444C1AFF5046,,,,https://datahub.tec.mx
124,Texas Data Repository Dataverse,A statewide archive of research data from Texas Digital Library (TDL) member institutions.,30.307182,-97.755996,dataverse.tdl.org,True,2016,USA,North America,['TDR'],1.0,10.18738,support@tdl.org,DAD9F3CC-9866-4EFC-9E64-944094E89851,http://data.tdl.org/about,,,https://dataverse.tdl.org
125,The Henryk Niewodniczański Institute of Nuclear Physics Polish Academy of Sciences,"The RODBUK Cracow Open Research Data Repository at the Henryk Niewodniczański Institute of Nuclear Physics Polish Academy of Sciences is intended for collecting, storing and public sharing of research data resulting from scientific work and research projects conducted by the employees and doctoral students of IFJ PAN. Each dataset uploaded to the repository will be automatically assigned a DOI (Digital Object Identifier). The use of the Repository is free of charge.",50.08810396,19.89059177,ifj.rodbuk.pl,,2025,Poland,Europe,,0.0,10.48733,beata.rozewicz@ifj.edu.pl,DB87E9B4-4726-4E01-843E-60012983002E,,,,https://ifj.rodbuk.pl
126,TRR170-DB,"The TRR170-DB was set up to manage data products of the collaborative research center TRR 170 'Late Accretion onto Terrestrial Planets' (https://www.trr170-lateaccretion.de/). The repository also stores data by other institutions and researchers. Data include laboratory and other instrumental data on planetary samples, remote sensing data, geological maps and model simulations.",52.42691139,13.35657449,planetary-data-portal.org,True,2020,Germany,Europe,,0.0,10.35003,,DBF3A4BE-81EF-4E0D-B93B-8BC653CD7A43,,,,https://planetary-data-portal.org
127,TUDOdata,TUDOdata is the central research data repository of TU Dortmund University. It is intended to archive and publish high-quality research data and metadata from all TU Dortmund Universities disciplines. TUDOdata ensures data- and metadata quality by careful curation performed by the central research data service or faculty and joint collaboration representatives.,51.48999,7.40749,data.tu-dortmund.de,True,2024,Germany,Europe,,0.0,10.17877,fdm@tu-dortmund.de,E16A3FEA-5895-45C6-8D0C-144FD1926863,,,,https://data.tu-dortmund.de
128,UC Berkeley Library Dataverse,"All data in the UC Berkeley Library Dataverse has been acquired and licensed by the library for use by UC Berkeley and Lawrence Berkeley National Lab students, faculty, and staff. Data records and terms are viewable by any user, regardless of affiliation. Please login to the repository using a Calnet ID and passphrase to view and download data files. Note that accessing some data files requires agreeing to the terms of use as listed in the guestbook functionality. Research data (i.e. data, code, and other outputs generated during the research process) are not stored on UC Berkeley Library’s Dataverse.",37.8721922,-122.2594984,datasets.lib.berkeley.edu,,2024,USA,North America,,0.0,10.60503,librarydataservices@berkeley.edu,E2FE7220-D4EE-4BCC-9D7C-B29B53EB3A68,,,,https://datasets.lib.berkeley.edu
129,UCLA Dataverse,"UCLA Dataverse allows for the sharing and storage of data from UCLA research. This makes it accessible, discoverable and reusable by the public. The platform also hosts sub-dataverses for different campus groups like schools or departments.",34.0689,-118.4452,dataverse.ucla.edu,True,2019,USA,North America,,1.0,10.25346,datascience@ucla.edu,E57F902D-D890-44FA-B74C-A3A6441EF963,,,,https://dataverse.ucla.edu
130,ULiège Open Data Repository,"The ULiège Dataverse is the ULiège institutional open data sharing repository, used by ULiège researchers to share datasets with the global scientific community, according to the FAIR data principles.",50.64127729,5.575774769,dataverse.uliege.be,,2023,Belgium,Europe,,0.0,10.58119,dataverse.admin@uliege.be,EB844DCF-6723-4E88-B499-3149873C6957,,,,https://dataverse.uliege.be
131,UNB Libraries Dataverse,UNB Dataverse is repository for research data collected by researchers and organizations primarily affiliated with the University of New Brunswick.,45.964993,-66.646332,dataverse.lib.unb.ca,True,2017,Canada,North America,,0.0,10.25545,rdm.services@unb.ca,EF0E1781-88B4-416C-9257-2389264D66D9,,,,https://dataverse.lib.unb.ca
132,UNC Dataverse,Open for all researchers worldwide from all disciplines to deposit data. The Odum Institute also offers multiple data curation service levels.,35.905022,-79.050851,dataverse.unc.edu,True,2008,USA,North America,['odum_all'],1.0,10.15139,rdmc_systems@unc.edu,F03093A2-8CD0-4702-95C8-DAC11339BC8F,https://odum.unc.edu/archive/,['https://www.coretrustseal.org/wp-content/uploads/2020/10/Odum-Institute-Data-Archive.pdf'],https://github.com/orgs/IQSS/projects/5,https://dataverse.unc.edu
133,University of Wroclaw,"RODBUK Cracow Open Research Data Repository of University of Wroclaw is used to collect, store and publicly share research data created during scientific works and research projects carried out by the scientific staff, doctoral students and students of UWr. RODBUK is open to all scientific units interested in depositing and sharing their research data. Each dataset placed in the Repository will be automatically assigned a DOI identifier. All published metadata will meet the guidelines provided by OpenAIRE. FAIR principles are applied in the Repository. The use of the Repository is free of charge.",51.11403897,17.03458906,uwr.rodbuk.pl,,2025,Poland,Europe,,0.0,10.34616,repozytorium.rodbuk@uwr.edu.pl,F6E845D8-F9C1-48D1-8C8F-EA560DDB88D5,,,,https://uwr.rodbuk.pl
134,Università Ca’ Foscari Venezia Datarepository,"Ca’ Foscari University has welcomed a dynamic academic community for over 150 years in the heart of Venice. Innovation, investing in talent, support to researchers and the development of international collaborations: these are just some of the activities that make Ca’ Foscari’s more competitive in the global arena and influential in information sharing. Datarepository Unive is the institutional data repository that collects, stores, and preserves research data produced by Ca' Foscari researchers.",45.434496,12.326448,datarepository.unive.it,True,2024,Italy,Europe,,0.0,10.71731,openscience@unive.it,A778079E-90D2-4C3C-ABFD-D049F8B30A31,,,,https://datarepository.unive.it
135,Università degli Studi di Milano,"The University of Milan is home to important research teams operating in the university's extremely rich variety of scientific-disciplinary sectors. Besides taking part in the most relevant national and international research programs, the University is also very active in the field of technology transfer and developing applications for scientific research results. dataverse.unimi.it is the repository for research data offered to all researchers in disciplines from health sciences to laws, from economics to hard sciences, from humanities to mathematics.",45.4601,9.1946,dataverse.unimi.it,True,2019,Italy,Europe,,0.0,10.1313,rdm@unimi.it,F20D2DED-EC0C-4ED2-B424-A67F733B5C0B,,,,https://dataverse.unimi.it
136,VTTI,Transportation data repository maintained by the Virginia Tech Transportation Institute.,37.190102,-80.396776,dataverse.vtti.vt.edu,True,2016,USA,North America,,0.0,10.15787,,F870DA03-76E5-42CE-936F-F9729380DAA8,,,https://github.com/orgs/IQSS/projects/18,https://dataverse.vtti.vt.edu
137,World Agroforestry - Research Data Repository,,-1.229425,36.8135,data.worldagroforestry.org,True,2019,Kenya,Africa,,0.0,10.34725,a.tenorio@cgiar.org,FAB103CF-C116-4D4A-AFBD-7DEB617A1742,,,https://github.com/orgs/IQSS/projects/37,https://data.worldagroforestry.org
138,Wyoming Data Repository,"The Wyoming Data Repository (WDR) is a service and platform offered by the University of Wyoming Libraries in collaboration with UW’s Advanced Research Computing Center (ARCC). It serves as Wyoming’s statewide research data repository, helping researchers from the University of Wyoming and Wyoming community colleges openly manage, share, discover, analyze, and preserve their research data.",41.31166,-105.57928,dataverse.arcc.uwyo.edu,,2024,USA,North America,,0.0,10.15786,wyodata@uwyo.edu,FB25F6FF-32CD-4ED3-95AB-344AEF1A5325,,,,https://dataverse.arcc.uwyo.edu
139,Yale Dataverse,"Yale Dataverse is a data repository service for Yale University faculty, staff, students, and affiliates to share, preserve, and cite research data. Yale Library hosts and manages Yale Dataverse to ensure research produced at Yale is accessible and discoverable to the global community.",41.316614,-72.922209,dataverse.yale.edu,True,2023,USA,North America,,1.0,10.606,dataverseadmin@yale.edu,84534893-F7B6-45B0-A454-B7E98F8AB589,https://researchdata.yale.edu/yale-dataverse,,,https://dataverse.yale.edu
140,University of Vermont Dataverse,,44.478385,-73.200558,dataverse.uvm.edu,,2025,USA,,,,,,,,,,https://dataverse.uvm.edu
